[
  {
    "id": 6,
    "name": "Site E",
    "type": "Survey",
    "latitude": 29.9511,
    "longitude": -90.0715,
    "description": "New Orleans",
    "createDate": "2024-01-05",
    "startDate": "2024-02-01",
    "endDate": "2024-08-01",
    "status": "Completed"
  },
  {
    "id": 7,
    "name": "Site F",
    "type": "Base",
    "latitude": 47.6062,
    "longitude": -122.3321,
    "description": "Seattle",
    "createDate": "2024-01-20",
    "startDate": "2024-03-01",
    "endDate": "2025-03-01",
    "status": "Active"
  },
  {
    "id": 8,
    "name": "Site G",
    "type": "Monitor",
    "latitude": 25.7617,
    "longitude": -80.1918,
    "description": "Miami",
    "createDate": "2024-02-14",
    "startDate": "2024-04-01",
    "endDate": "2024-10-31",
    "status": "Completed"
  },
  {
    "id": 9,
    "name": "Site H",
    "type": "Survey",
    "latitude": 39.7392,
    "longitude": -104.9903,
    "description": "Denver",
    "createDate": "2024-03-01",
    "startDate": "2024-04-15",
    "endDate": "2025-01-15",
    "status": "Active"
  },
  {
    "id": 10,
    "name": "Site I",
    "type": "Monitor",
    "latitude": 36.1699,
    "longitude": -115.1398,
    "description": "Las Vegas",
    "createDate": "2024-03-10",
    "startDate": "2024-05-01",
    "endDate": "2025-05-01",
    "status": "Active"
  },
  {
    "id": 11,
    "name": "Site J",
    "type": "Survey",
    "latitude": 35.4676,
    "longitude": -97.5164,
    "description": "Oklahoma City",
    "createDate": "2024-04-05",
    "startDate": "2024-06-01",
    "endDate": "2024-12-01",
    "status": "Completed"
  },
  {
    "id": 12,
    "name": "Site K",
    "type": "Base",
    "latitude": 44.9778,
    "longitude": -93.265,
    "description": "Minneapolis",
    "createDate": "2024-04-20",
    "startDate": "2024-06-15",
    "endDate": "2025-06-15",
    "status": "Active"
  },
  {
    "id": 13,
    "name": "Site L",
    "type": "Monitor",
    "latitude": 38.2527,
    "longitude": -85.7585,
    "description": "Louisville",
    "createDate": "2024-05-01",
    "startDate": "2024-07-01",
    "endDate": "2025-01-01",
    "status": "Pending"
  },
  {
    "id": 14,
    "name": "Site M",
    "type": "Survey",
    "latitude": 36.1627,
    "longitude": -86.7816,
    "description": "Nashville",
    "createDate": "2024-05-15",
    "startDate": "2024-07-15",
    "endDate": "2025-02-15",
    "status": "Active"
  },
  {
    "id": 15,
    "name": "Site N",
    "type": "Monitor",
    "latitude": 35.2271,
    "longitude": -80.8431,
    "description": "Charlotte",
    "createDate": "2024-06-01",
    "startDate": "2024-08-01",
    "endDate": "2025-02-28",
    "status": "Active"
  },
  {
    "id": 16,
    "name": "Site O",
    "type": "Survey",
    "latitude": 39.9526,
    "longitude": -75.1652,
    "description": "Philadelphia",
    "createDate": "2024-06-10",
    "startDate": "2024-08-15",
    "endDate": "2025-03-15",
    "status": "Pending"
  },
  {
    "id": 17,
    "name": "Site P",
    "type": "Base",
    "latitude": 42.3601,
    "longitude": -71.0589,
    "description": "Boston",
    "createDate": "2024-06-20",
    "startDate": "2024-09-01",
    "endDate": "2025-09-01",
    "status": "Active"
  },
  {
    "id": 18,
    "name": "Site Q",
    "type": "Monitor",
    "latitude": 45.5051,
    "longitude": -122.675,
    "description": "Portland",
    "createDate": "2024-07-01",
    "startDate": "2024-09-15",
    "endDate": "2025-04-15",
    "status": "Pending"
  },
  {
    "id": 19,
    "name": "Site R",
    "type": "Survey",
    "latitude": 37.3382,
    "longitude": -121.8863,
    "description": "San Jose",
    "createDate": "2024-07-10",
    "startDate": "2024-10-01",
    "endDate": "2025-04-30",
    "status": "Active"
  },
  {
    "id": 20,
    "name": "Site S",
    "type": "Monitor",
    "latitude": 32.7767,
    "longitude": -96.797,
    "description": "Dallas",
    "createDate": "2024-07-20",
    "startDate": "2024-10-15",
    "endDate": "2025-05-15",
    "status": "Pending"
  },
  {
    "id": 21,
    "name": "Site T",
    "type": "Survey",
    "latitude": 30.2672,
    "longitude": -97.7431,
    "description": "Austin",
    "createDate": "2024-08-01",
    "startDate": "2024-11-01",
    "endDate": "2025-06-01",
    "status": "Pending"
  },
  {
    "id": 22,
    "name": "Site U",
    "type": "Base",
    "latitude": 32.7157,
    "longitude": -117.1611,
    "description": "San Diego",
    "createDate": "2024-08-10",
    "startDate": "2024-11-15",
    "endDate": "2025-11-15",
    "status": "Active"
  },
  {
    "id": 23,
    "name": "Site V",
    "type": "Monitor",
    "latitude": 37.7749,
    "longitude": -122.4194,
    "description": "San Francisco",
    "createDate": "2024-08-20",
    "startDate": "2024-12-01",
    "endDate": "2025-07-01",
    "status": "Pending"
  },
  {
    "id": 24,
    "name": "Site W",
    "type": "Survey",
    "latitude": 43.0481,
    "longitude": -76.1474,
    "description": "Syracuse",
    "createDate": "2024-09-01",
    "startDate": "2024-12-15",
    "endDate": "2025-07-15",
    "status": "Pending"
  },
  {
    "id": 25,
    "name": "Site X",
    "type": "Monitor",
    "latitude": 38.9072,
    "longitude": -77.0369,
    "description": "Washington DC",
    "createDate": "2024-09-10",
    "startDate": "2025-01-01",
    "endDate": "2025-08-01",
    "status": "Pending"
  },
  {
    "id": 26,
    "name": "Site Y",
    "type": "Survey",
    "latitude": 61.2181,
    "longitude": -149.9003,
    "description": "Anchorage",
    "createDate": "2024-09-20",
    "startDate": "2025-01-15",
    "endDate": "2025-09-15",
    "status": "Pending"
  },
  {
    "id": 27,
    "name": "Site Z",
    "type": "Base",
    "latitude": 21.3069,
    "longitude": -157.8583,
    "description": "Honolulu",
    "createDate": "2024-10-01",
    "startDate": "2025-02-01",
    "endDate": "2026-02-01",
    "status": "Active"
  },
  {
    "id": 28,
    "name": "Site AA",
    "type": "Monitor",
    "latitude": 35.687,
    "longitude": -105.9378,
    "description": "Santa Fe",
    "createDate": "2024-10-10",
    "startDate": "2025-02-15",
    "endDate": "2025-10-15",
    "status": "Pending"
  },
  {
    "id": 29,
    "name": "Site AB",
    "type": "Survey",
    "latitude": 46.8772,
    "longitude": -96.7898,
    "description": "Fargo",
    "createDate": "2024-10-20",
    "startDate": "2025-03-01",
    "endDate": "2025-11-01",
    "status": "Pending"
  },
  {
    "id": 30,
    "name": "Site AC",
    "type": "Monitor",
    "latitude": 43.6591,
    "longitude": -70.2568,
    "description": "Portland ME",
    "createDate": "2024-11-01",
    "startDate": "2025-03-15",
    "endDate": "2025-12-15",
    "status": "Pending"
  },
  {
    "id": 31,
    "name": "Site AD",
    "type": "Survey",
    "latitude": 39.0997,
    "longitude": -94.5786,
    "description": "Kansas City",
    "createDate": "2024-11-10",
    "startDate": "2025-04-01",
    "endDate": "2026-01-01",
    "status": "Pending"
  },
  {
    "id": 32,
    "name": "Site AE",
    "type": "Base",
    "latitude": 41.2565,
    "longitude": -95.9345,
    "description": "Omaha",
    "createDate": "2024-11-20",
    "startDate": "2025-04-15",
    "endDate": "2026-04-15",
    "status": "Active"
  },
  {
    "id": 33,
    "name": "Site AF",
    "type": "Monitor",
    "latitude": 43.0731,
    "longitude": -89.4012,
    "description": "Madison",
    "createDate": "2024-12-01",
    "startDate": "2025-05-01",
    "endDate": "2026-01-31",
    "status": "Pending"
  },
  {
    "id": 34,
    "name": "Site AG",
    "type": "Survey",
    "latitude": 30.3322,
    "longitude": -81.6557,
    "description": "Jacksonville",
    "createDate": "2024-12-10",
    "startDate": "2025-05-15",
    "endDate": "2026-02-15",
    "status": "Pending"
  },
  {
    "id": 35,
    "name": "Site AH",
    "type": "Monitor",
    "latitude": 35.7796,
    "longitude": -78.6382,
    "description": "Raleigh",
    "createDate": "2024-12-20",
    "startDate": "2025-06-01",
    "endDate": "2026-03-01",
    "status": "Pending"
  },
  {
    "name": "Test",
    "type": "sdf",
    "latitude": 435,
    "longitude": 435,
    "description": "",
    "createDate": "",
    "startDate": "",
    "endDate": "",
    "status": ""
  },
  {
    "name": "Test",
    "type": "sdf",
    "latitude": 324,
    "longitude": 235,
    "description": "",
    "createDate": "",
    "startDate": "",
    "endDate": "",
    "status": ""
  },
  {
    "name": "Test 123",
    "type": "sferw",
    "latitude": 234,
    "longitude": 32,
    "description": "",
    "createDate": "",
    "startDate": "",
    "endDate": "",
    "status": ""
  },
  {
    "name": "Update Test",
    "type": "",
    "latitude": null,
    "longitude": null,
    "description": "",
    "createDate": "",
    "startDate": "",
    "endDate": "",
    "status": ""
  },
  {
    "name": "Update Again",
    "type": "",
    "latitude": null,
    "longitude": null,
    "description": "",
    "createDate": "",
    "startDate": "",
    "endDate": "",
    "status": ""
  },
  {
    "name": "Id Test",
    "type": "",
    "latitude": null,
    "longitude": null,
    "description": "",
    "createDate": "",
    "startDate": "",
    "endDate": "",
    "status": "",
    "id": "fe955fe6-58a4-4df9-a965-5f4b519c6028"
  },
  {
    "name": "Loader Test",
    "type": "",
    "latitude": null,
    "longitude": null,
    "description": "",
    "createDate": "",
    "startDate": "",
    "endDate": "",
    "status": "",
    "id": "58d5bc7d-fb01-4dff-a226-c53c06f473a9"
  },
  {
    "name": "Loader Test 2",
    "type": "",
    "latitude": null,
    "longitude": null,
    "description": "",
    "createDate": "",
    "startDate": "",
    "endDate": "",
    "status": "",
    "id": "5e842e14-27af-44e3-9a98-c929595cce03"
  },
  {
    "name": "Loader Tset ",
    "type": "",
    "latitude": null,
    "longitude": null,
    "description": "",
    "createDate": "",
    "startDate": "",
    "endDate": "",
    "status": "",
    "id": "c5b82c3d-b62d-4265-abc8-de59b6aad4c1"
  }
]